{"businesses":
	[
		{"business_id": "FYWN1wneV18bWNgQjJ2GNg", "name": "Dental by Design", "neighborhood": "", "address": "4855 E Warner Rd, Ste B9", "city": "Ahwatukee", "state": "AZ", "postal_code": "85044", "latitude": 33.3306902, "longitude": -111.9785992, "stars": 4.0, "review_count": 22, "is_open": 1, "attributes": {"AcceptsInsurance": true, "ByAppointmentOnly": true, "BusinessAcceptsCreditCards": true}, "categories": ["Dentists", "General Dentistry", "Health & Medical", "Oral Surgeons", "Cosmetic Dentists", "Orthodontists"], "hours": {"Friday": "7:30-17:00", "Tuesday": "7:30-17:00", "Thursday": "7:30-17:00", "Wednesday": "7:30-17:00", "Monday": "7:30-17:00"}}
		,{"business_id": "He-G7vWjzVUysIKrfNbPUQ", "name": "Stephen Szabo Salon", "neighborhood": "", "address": "3101 Washington Rd", "city": "McMurray", "state": "PA", "postal_code": "15317", "latitude": 40.2916853, "longitude": -80.1048999, "stars": 3.0, "review_count": 11, "is_open": 1, "attributes": {"BusinessParking": {"garage": false, "street": false, "validated": false, "lot": true, "valet": false}, "HairSpecializesIn": {"coloring": true, "africanamerican": false, "curly": true, "perms": true, "kids": true, "extensions": true, "asian": true, "straightperms": true}, "BusinessAcceptsCreditCards": true, "RestaurantsPriceRange2": 3, "GoodForKids": true, "ByAppointmentOnly": false, "WheelchairAccessible": true}, "categories": ["Hair Stylists", "Hair Salons", "Men's Hair Salons", "Blow Dry/Out Services", "Hair Extensions", "Beauty & Spas"], "hours": {"Monday": "9:00-20:00", "Tuesday": "9:00-20:00", "Friday": "9:00-16:00", "Wednesday": "9:00-20:00", "Thursday": "9:00-20:00", "Saturday": "8:00-16:00"}}
		,{"business_id": "KQPW8lFf1y5BT2MxiSZ3QA", "name": "Western Motor Vehicle", "neighborhood": "", "address": "6025 N 27th Ave, Ste 1", "city": "Phoenix", "state": "AZ", "postal_code": "85017", "latitude": 33.5249025, "longitude": -112.1153098, "stars": 1.5, "review_count": 18, "is_open": 1, "attributes": {}, "categories": ["Departments of Motor Vehicles", "Public Services & Government"], "hours": {}}
		,{"business_id": "8DShNS-LuFqpEWIp0HxijA", "name": "Sports Authority", "neighborhood": "", "address": "5000 Arizona Mills Cr, Ste 435", "city": "Tempe", "state": "AZ", "postal_code": "85282", "latitude": 33.3831468, "longitude": -111.9647254, "stars": 3.0, "review_count": 9, "is_open": 0, "attributes": {"BusinessAcceptsCreditCards": true, "RestaurantsPriceRange2": 2, "BusinessParking": {"garage": false, "street": false, "validated": false, "lot": true, "valet": false}, "BikeParking": true}, "categories": ["Sporting Goods", "Shopping"], "hours": {"Monday": "10:00-21:00", "Tuesday": "10:00-21:00", "Friday": "10:00-21:00", "Wednesday": "10:00-21:00", "Thursday": "10:00-21:00", "Sunday": "11:00-19:00", "Saturday": "10:00-21:00"}}
		,{"business_id": "PfOCPjBrlQAnz__NXj9h_w", "name": "Brick House Tavern + Tap", "neighborhood": "", "address": "581 Howe Ave", "city": "Cuyahoga Falls", "state": "OH", "postal_code": "44221", "latitude": 41.1195346, "longitude": -81.4756898, "stars": 3.5, "review_count": 116, "is_open": 1, "attributes": {"Alcohol": "full_bar", "HasTV": true, "NoiseLevel": "average", "RestaurantsAttire": "casual", "BusinessAcceptsCreditCards": true, "Music": {"dj": false, "background_music": true, "no_music": false, "karaoke": false, "live": false, "video": false, "jukebox": false}, "Ambience": {"romantic": false, "intimate": false, "classy": false, "hipster": false, "divey": false, "touristy": false, "trendy": false, "upscale": false, "casual": true}, "RestaurantsGoodForGroups": true, "Caters": false, "WiFi": "free", "RestaurantsReservations": false, "BikeParking": true, "RestaurantsTakeOut": true, "GoodForKids": true, "HappyHour": true, "GoodForDancing": false, "RestaurantsTableService": true, "OutdoorSeating": true, "RestaurantsPriceRange2": 2, "RestaurantsDelivery": false, "BestNights": {"monday": false, "tuesday": false, "friday": true, "wednesday": true, "thursday": false, "sunday": false, "saturday": true}, "GoodForMeal": {"dessert": false, "latenight": true, "lunch": false, "dinner": true, "breakfast": false, "brunch": false}, "BusinessParking": {"garage": false, "street": false, "validated": false, "lot": true, "valet": false}, "CoatCheck": false, "Smoking": "outdoor", "DriveThru": false}, "categories": ["American (New)", "Nightlife", "Bars", "Sandwiches", "American (Traditional)", "Burgers", "Restaurants"], "hours": {"Monday": "11:00-1:00", "Tuesday": "11:00-1:00", "Friday": "11:00-1:00", "Wednesday": "11:00-1:00", "Thursday": "11:00-1:00", "Sunday": "11:00-0:00", "Saturday": "11:00-2:00"}}
		,{"business_id": "o9eMRCWt5PkpLDE0gOPtcQ", "name": "Messina", "neighborhood": "", "address": "Richterstr. 11", "city": "Stuttgart", "state": "BW", "postal_code": "70567", "latitude": 48.7272, "longitude": 9.14795, "stars": 4.0, "review_count": 5, "is_open": 1, "attributes": {"GoodForMeal": {"dessert": false, "latenight": false, "lunch": false, "dinner": false, "breakfast": false, "brunch": false}, "DogsAllowed": false, "Alcohol": "beer_and_wine", "RestaurantsGoodForGroups": true, "RestaurantsAttire": "dressy", "RestaurantsReservations": true, "OutdoorSeating": true, "BusinessAcceptsCreditCards": true, "RestaurantsPriceRange2": 3, "RestaurantsDelivery": false, "Ambience": {"romantic": false, "intimate": false, "classy": false, "hipster": false, "touristy": false, "trendy": false, "upscale": false, "casual": false}, "RestaurantsTakeOut": false, "GoodForKids": true, "WheelchairAccessible": false, "BusinessParking": {"garage": false, "street": false, "validated": false, "lot": false, "valet": false}}, "categories": ["Italian", "Restaurants"], "hours": {"Monday": "18:00-0:00", "Tuesday": "18:00-0:00", "Friday": "18:00-0:00", "Wednesday": "18:00-0:00", "Thursday": "18:00-0:00", "Saturday": "18:00-0:00"}}
		,{"business_id": "kCoE3jvEtg6UVz5SOD3GVw", "name": "BDJ Realty", "neighborhood": "Summerlin", "address": "2620 Regatta Dr, Ste 102", "city": "Las Vegas", "state": "NV", "postal_code": "89128", "latitude": 36.20743, "longitude": -115.26846, "stars": 4.0, "review_count": 5, "is_open": 1, "attributes": {"BusinessAcceptsCreditCards": false, "ByAppointmentOnly": false}, "categories": ["Real Estate Services", "Real Estate", "Home Services", "Property Management"], "hours": {"Friday": "8:00-17:00", "Tuesday": "8:00-17:00", "Thursday": "8:00-17:00", "Wednesday": "8:00-17:00", "Monday": "8:00-17:00"}}
		,{"business_id": "OD2hnuuTJI9uotcKycxg1A", "name": "Soccer Zone", "neighborhood": "", "address": "7240 W Lake Mead Blvd, Ste 4", "city": "Las Vegas", "state": "NV", "postal_code": "89128", "latitude": 36.1974844, "longitude": -115.2496601, "stars": 1.5, "review_count": 9, "is_open": 1, "attributes": {"BusinessAcceptsCreditCards": true, "RestaurantsPriceRange2": 3, "BusinessParking": {"garage": false, "street": false, "validated": false, "lot": false, "valet": false}, "BikeParking": true, "WheelchairAccessible": false}, "categories": ["Shopping", "Sporting Goods"], "hours": {"Monday": "11:00-19:00", "Tuesday": "11:00-19:00", "Friday": "11:00-19:00", "Wednesday": "11:00-19:00", "Thursday": "11:00-19:00", "Sunday": "11:00-16:00", "Saturday": "10:00-18:00"}}
		,{"business_id": "EsMcGiZaQuG1OOvL9iUFug", "name": "Any Given Sundae", "neighborhood": "", "address": "2612 Brandt School Rd", "city": "Wexford", "state": "PA", "postal_code": "15090", "latitude": 40.6151022445, "longitude": -80.0913487465, "stars": 5.0, "review_count": 15, "is_open": 1, "attributes": {"BusinessParking": {"garage": false, "street": false, "validated": false, "lot": true, "valet": false}, "Caters": false, "WiFi": "free", "OutdoorSeating": true, "BusinessAcceptsCreditCards": true, "RestaurantsPriceRange2": 1, "BikeParking": false, "RestaurantsTakeOut": true}, "categories": ["Coffee & Tea", "Ice Cream & Frozen Yogurt", "Food"], "hours": {}}
		,{"business_id": "TGWhGNusxyMaA4kQVBNeew", "name": "Detailing Gone Mobile", "neighborhood": "", "address": "", "city": "Henderson", "state": "NV", "postal_code": "89014", "latitude": 36.0558252127, "longitude": -115.04635039, "stars": 5.0, "review_count": 7, "is_open": 1, "attributes": {"BusinessAcceptsCreditCards": true}, "categories": ["Automotive", "Auto Detailing"], "hours": {"Monday": "9:00-18:00", "Tuesday": "9:00-18:00", "Friday": "9:00-18:00", "Wednesday": "9:00-18:00", "Thursday": "9:00-18:00", "Sunday": "9:00-18:00", "Saturday": "9:00-18:00"}}
		,{"business_id": "XOSRcvtaKc_Q5H1SAzN20A", "name": "East Coast Coffee", "neighborhood": "", "address": "737 West Pike St", "city": "Houston", "state": "PA", "postal_code": "15342", "latitude": 40.2415480142, "longitude": -80.2128151059, "stars": 4.5, "review_count": 3, "is_open": 0, "attributes": {"RestaurantsTableService": true, "GoodForMeal": {"dessert": false, "latenight": false, "lunch": false, "dinner": false, "breakfast": false, "brunch": false}, "DogsAllowed": true, "Alcohol": "none", "Caters": true, "HasTV": false, "RestaurantsGoodForGroups": true, "RestaurantsAttire": "casual", "RestaurantsReservations": true, "OutdoorSeating": false, "BusinessAcceptsCreditCards": true, "RestaurantsPriceRange2": 1, "BusinessAcceptsBitcoin": false, "BikeParking": true, "RestaurantsDelivery": false, "RestaurantsTakeOut": true, "GoodForKids": true, "WheelchairAccessible": true, "BusinessParking": {"garage": false, "street": false, "validated": false, "lot": true, "valet": false}}, "categories": ["Breakfast & Brunch", "Gluten-Free", "Coffee & Tea", "Food", "Restaurants", "Sandwiches"], "hours": {}}
		,{"business_id": "Y0eMNa5C-YU1RQOZf9XvVA", "name": "CubeSmart Self Storage", "neighborhood": "", "address": "2414 South Gilbert Road", "city": "Chandler", "state": "AZ", "postal_code": "85286", "latitude": 33.2717201, "longitude": -111.7912569, "stars": 5.0, "review_count": 23, "is_open": 1, "attributes": {"BusinessAcceptsCreditCards": true}, "categories": ["Local Services", "Self Storage"], "hours": {"Monday": "9:30-18:00", "Tuesday": "9:30-18:00", "Friday": "9:30-18:00", "Wednesday": "9:30-18:00", "Thursday": "9:30-18:00", "Sunday": "11:00-15:00", "Saturday": "8:30-17:30"}}
		,{"business_id": "xcgFnd-MwkZeO5G2HQ0gAQ", "name": "T & T Bakery and Cafe", "neighborhood": "Markham Village", "address": "35 Main Street N", "city": "Markham", "state": "ON", "postal_code": "L3P 1X3", "latitude": 43.8751774, "longitude": -79.2601532, "stars": 4.0, "review_count": 38, "is_open": 1, "attributes": {"BusinessParking": {"garage": false, "street": true, "validated": false, "lot": true, "valet": false}, "Caters": true, "BusinessAcceptsCreditCards": false, "RestaurantsPriceRange2": 1, "BikeParking": true, "RestaurantsDelivery": false, "RestaurantsTakeOut": true}, "categories": ["Bakeries", "Bagels", "Food"], "hours": {}}
		,{"business_id": "NmZtoE3v8RdSJEczYbMT9g", "name": "Complete Dental Care", "neighborhood": "", "address": "107 Whitaker Str", "city": "Homestead", "state": "PA", "postal_code": "15120", "latitude": 40.4014882, "longitude": -79.8879161, "stars": 2.0, "review_count": 5, "is_open": 1, "attributes": {"AcceptsInsurance": true, "ByAppointmentOnly": true, "BusinessAcceptsCreditCards": true}, "categories": ["General Dentistry", "Dentists", "Endodontists", "Cosmetic Dentists", "Health & Medical", "Orthodontists"], "hours": {"Friday": "8:00-17:00", "Tuesday": "8:00-17:00", "Thursday": "8:00-17:00", "Wednesday": "8:00-14:00", "Monday": "8:00-17:00"}}
		,{"business_id": "fNMVV_ZX7CJSDWQGdOM8Nw", "name": "Showmars Government Center", "neighborhood": "Uptown", "address": "600 E 4th St", "city": "Charlotte", "state": "NC", "postal_code": "28202", "latitude": 35.2216474, "longitude": -80.8393449, "stars": 3.5, "review_count": 7, "is_open": 1, "attributes": {"GoodForMeal": {"dessert": false, "latenight": false, "lunch": false, "dinner": false, "breakfast": false, "brunch": false}, "RestaurantsTableService": false, "HasTV": false, "RestaurantsGoodForGroups": true, "WiFi": "free", "RestaurantsAttire": "casual", "RestaurantsReservations": false, "OutdoorSeating": true, "BusinessAcceptsCreditCards": true, "RestaurantsPriceRange2": 1, "BikeParking": true, "RestaurantsDelivery": false, "Ambience": {"romantic": false, "intimate": false, "classy": false, "hipster": false, "divey": false, "touristy": false, "trendy": false, "upscale": false, "casual": false}, "RestaurantsTakeOut": true, "GoodForKids": true}, "categories": ["Restaurants", "American (Traditional)"], "hours": {"Friday": "7:00-15:00", "Tuesday": "7:00-15:00", "Thursday": "7:00-15:00", "Wednesday": "7:00-15:00", "Monday": "7:00-15:00"}}
		,{"business_id": "l09JfMeQ6ynYs5MCJtrcmQ", "name": "Alize Catering", "neighborhood": "Yonge and Eglinton", "address": "2459 Yonge St", "city": "Toronto", "state": "ON", "postal_code": "M4P 2H6", "latitude": 43.7113993, "longitude": -79.3993388, "stars": 3.0, "review_count": 12, "is_open": 0, "attributes": {"GoodForMeal": {"dessert": false, "latenight": false, "lunch": false, "dinner": true, "breakfast": false, "brunch": false}, "Alcohol": "full_bar", "Caters": false, "HasTV": false, "RestaurantsGoodForGroups": false, "NoiseLevel": "average", "WiFi": "no", "RestaurantsAttire": "casual", "RestaurantsReservations": true, "OutdoorSeating": true, "BusinessAcceptsCreditCards": true, "RestaurantsPriceRange2": 3, "RestaurantsTableService": true, "RestaurantsDelivery": false, "Ambience": {"romantic": true, "intimate": false, "classy": false, "hipster": false, "touristy": false, "trendy": false, "upscale": false, "casual": false}, "RestaurantsTakeOut": true, "GoodForKids": false, "WheelchairAccessible": false, "BusinessParking": {"garage": false, "street": true, "validated": false, "lot": false, "valet": false}}, "categories": ["Italian", "French", "Restaurants"], "hours": {"Monday": "9:00-22:00", "Tuesday": "9:00-22:00", "Friday": "9:00-22:00", "Wednesday": "9:00-22:00", "Thursday": "9:00-22:00", "Sunday": "9:00-22:00", "Saturday": "9:00-22:00"}}
		,{"business_id": "IQSlT5jGE6CCDhSG0zG3xg", "name": "T & Y Nail Spa", "neighborhood": "", "address": "8411 W Thunderbird Rd, Unit 101", "city": "Peoria", "state": "AZ", "postal_code": "85381", "latitude": 33.6086538, "longitude": -112.2400118, "stars": 3.0, "review_count": 20, "is_open": 1, "attributes": {"BusinessParking": {"garage": false, "street": false, "validated": false, "lot": true, "valet": false}, "BusinessAcceptsCreditCards": true, "RestaurantsPriceRange2": 2, "BikeParking": false, "ByAppointmentOnly": false, "WheelchairAccessible": true}, "categories": ["Beauty & Spas", "Nail Salons"], "hours": {"Monday": "9:00-19:00", "Tuesday": "9:00-19:00", "Friday": "9:00-19:00", "Wednesday": "9:00-19:00", "Thursday": "9:00-19:00", "Sunday": "10:00-17:00", "Saturday": "9:00-18:00"}}
		,{"business_id": "b2I2DXtZVnpUMCXp1JON7A", "name": "Meineke Car Care Center", "neighborhood": "", "address": "2518 Ironwood Dr", "city": "Sun Prairie", "state": "WI", "postal_code": "53590", "latitude": 43.18508, "longitude": -89.262047, "stars": 3.5, "review_count": 9, "is_open": 1, "attributes": {"BusinessAcceptsCreditCards": true}, "categories": ["Tires", "Oil Change Stations", "Auto Repair", "Automotive"], "hours": {"Monday": "7:30-18:00", "Tuesday": "7:30-18:00", "Friday": "7:30-18:00", "Wednesday": "7:30-18:00", "Thursday": "7:30-18:00", "Saturday": "7:30-16:00"}}
		,{"business_id": "0FMKDOU8TJT1x87OKYGDTg", "name": "Senior's Barber Shop", "neighborhood": "", "address": "13375 W McDowell", "city": "Goodyear", "state": "AZ", "postal_code": "85395", "latitude": 33.463629, "longitude": -112.347038, "stars": 5.0, "review_count": 65, "is_open": 1, "attributes": {"BusinessAcceptsCreditCards": true, "RestaurantsPriceRange2": 2, "BusinessParking": {"garage": false, "street": false, "validated": false, "lot": false, "valet": false}, "BikeParking": true, "ByAppointmentOnly": false}, "categories": ["Barbers", "Beauty & Spas"], "hours": {"Monday": "9:00-18:00", "Tuesday": "9:00-18:00", "Friday": "9:00-19:00", "Wednesday": "9:00-18:00", "Thursday": "9:00-18:00", "Saturday": "9:00-18:00"}}
		,{"business_id": "Gu-xs3NIQTj3Mj2xYoN2aw", "name": "Maxim Bakery & Restaurant", "neighborhood": "", "address": "9665 Bayview Avenue, Unit 1-4", "city": "Richmond Hill", "state": "ON", "postal_code": "L4C 9V4", "latitude": 43.8675648, "longitude": -79.4126618, "stars": 3.5, "review_count": 34, "is_open": 1, "attributes": {"RestaurantsTableService": true, "GoodForMeal": {"dessert": true, "latenight": false, "lunch": true, "dinner": true, "breakfast": false, "brunch": false}, "Alcohol": "full_bar", "Caters": true, "HasTV": false, "RestaurantsGoodForGroups": true, "NoiseLevel": "average", "WiFi": "no", "RestaurantsAttire": "casual", "RestaurantsReservations": true, "OutdoorSeating": false, "BusinessAcceptsCreditCards": true, "RestaurantsPriceRange2": 2, "BikeParking": true, "RestaurantsDelivery": false, "Ambience": {"romantic": false, "intimate": false, "classy": false, "hipster": false, "touristy": false, "trendy": false, "upscale": false, "casual": true}, "RestaurantsTakeOut": true, "GoodForKids": true, "WheelchairAccessible": true, "BusinessParking": {"garage": false, "street": false, "validated": false, "lot": true, "valet": false}}, "categories": ["French", "Food", "Bakeries", "Restaurants"], "hours": {"Monday": "11:30-22:00", "Tuesday": "11:30-22:00", "Friday": "11:30-23:00", "Wednesday": "11:30-22:00", "Thursday": "11:30-22:00", "Sunday": "11:00-22:00", "Saturday": "11:00-23:00"}}
		,{"business_id": "lHYiCS-y8AFjUitv6MGpxg", "name": "Starbucks", "neighborhood": "Liberty Village", "address": "85 Hanna Avenue", "city": "Toronto", "state": "ON", "postal_code": "M6K 3S3", "latitude": 43.6398633116, "longitude": -79.4195331865, "stars": 4.0, "review_count": 21, "is_open": 1, "attributes": {"BusinessParking": {"garage": false, "street": true, "validated": false, "lot": false, "valet": false}, "Caters": false, "WiFi": "free", "OutdoorSeating": true, "BusinessAcceptsCreditCards": true, "RestaurantsPriceRange2": 2, "BikeParking": true, "RestaurantsTakeOut": true, "WheelchairAccessible": true}, "categories": ["Food", "Coffee & Tea"], "hours": {"Monday": "5:30-22:00", "Tuesday": "5:30-22:00", "Friday": "5:30-23:00", "Wednesday": "5:30-22:00", "Thursday": "5:30-22:00", "Sunday": "7:00-22:00", "Saturday": "6:00-23:00"}}
		,{"business_id": "94KziT6DQ9XlBET3WzIv_w", "name": "Fye", "neighborhood": "", "address": "1928 S Gilbert Rd", "city": "Mesa", "state": "AZ", "postal_code": "85204", "latitude": 33.3801334, "longitude": -111.7887679, "stars": 4.5, "review_count": 4, "is_open": 0, "attributes": {"BusinessAcceptsCreditCards": true, "RestaurantsPriceRange2": 3, "BusinessParking": {"garage": false, "street": false, "validated": false, "lot": true, "valet": false}, "BikeParking": false}, "categories": ["Shopping", "Books", "Mags", "Music & Video", "Music & DVDs"], "hours": {}}
		,{"business_id": "7YIy1tXOor9VCwvaSjuBHg", "name": "TSA Checkpoint T-4 A - Phoenix Sky Harbor International Airport", "neighborhood": "", "address": "3400 E Sky Harbor Blvd", "city": "Phoenix", "state": "AZ", "postal_code": "85034", "latitude": 33.4354634, "longitude": -112.0069893, "stars": 1.5, "review_count": 46, "is_open": 1, "attributes": {}, "categories": ["Public Services & Government"], "hours": {}}
		,{"business_id": "PMH4oUa-bWELKogdtkWewg", "name": "GoodLife Fitness", "neighborhood": "", "address": "100 City Centre Dr", "city": "Mississauga", "state": "ON", "postal_code": "L5B 2C9", "latitude": 43.5927528, "longitude": -79.6430158, "stars": 2.0, "review_count": 16, "is_open": 1, "attributes": {"GoodForKids": false, "BusinessParking": {"garage": false, "street": false, "validated": false, "lot": false, "valet": false}, "BikeParking": true, "ByAppointmentOnly": false}, "categories": ["Fitness & Instruction", "Sports Clubs", "Gyms", "Trainers", "Active Life"], "hours": {"Monday": "0:00-23:59", "Tuesday": "0:00-23:59", "Friday": "0:00-23:59", "Wednesday": "0:00-23:59", "Thursday": "0:00-23:59", "Sunday": "0:00-23:59", "Saturday": "0:00-23:59"}}
		,{"business_id": "VSGcuYDV3q-AAZ9ZPq4fBQ", "name": "Sportster's", "neighborhood": "The Danforth", "address": "1430 Danforth Avenue", "city": "Toronto", "state": "ON", "postal_code": "M4J 1N4", "latitude": 43.6828673, "longitude": -79.3269639, "stars": 2.5, "review_count": 7, "is_open": 1, "attributes": {"BusinessParking": {"garage": false, "street": false, "validated": false, "lot": false, "valet": false}, "HasTV": true, "CoatCheck": false, "OutdoorSeating": true, "BusinessAcceptsCreditCards": true, "RestaurantsPriceRange2": 3, "WheelchairAccessible": true, "BikeParking": true, "Smoking": "outdoor", "BestNights": {"monday": false, "tuesday": false, "friday": true, "wednesday": false, "thursday": false, "sunday": false, "saturday": true}, "RestaurantsGoodForGroups": true, "NoiseLevel": "average", "GoodForDancing": false, "Alcohol": "full_bar"}, "categories": ["Bars", "Sports Bars", "Nightlife"], "hours": {"Monday": "16:00-2:00", "Tuesday": "16:00-2:00", "Friday": "16:00-2:00", "Wednesday": "16:00-2:00", "Thursday": "16:00-2:00", "Sunday": "16:00-2:00", "Saturday": "16:00-2:00"}}
		,{"business_id": "1K4qrnfyzKzGgJPBEcJaNQ", "name": "Chula Taberna Mexicana", "neighborhood": "Leslieville", "address": "1058 Gerrard Street E", "city": "Toronto", "state": "ON", "postal_code": "M4M 3A6", "latitude": 43.6692562, "longitude": -79.3359022, "stars": 3.5, "review_count": 39, "is_open": 1, "attributes": {"Alcohol": "full_bar", "HasTV": true, "NoiseLevel": "loud", "RestaurantsDelivery": false, "RestaurantsAttire": "casual", "Music": {"dj": false, "background_music": true, "no_music": false, "karaoke": false, "live": false, "video": false, "jukebox": false}, "Ambience": {"romantic": false, "intimate": false, "classy": false, "hipster": false, "touristy": false, "trendy": true, "upscale": false, "casual": true}, "RestaurantsGoodForGroups": true, "WiFi": "free", "RestaurantsReservations": true, "RestaurantsTableService": true, "RestaurantsTakeOut": true, "GoodForKids": true, "HappyHour": true, "GoodForDancing": false, "BikeParking": true, "OutdoorSeating": true, "RestaurantsPriceRange2": 2, "Smoking": "no", "BestNights": {"monday": false, "tuesday": false, "friday": true, "wednesday": false, "thursday": true, "sunday": false, "saturday": true}, "GoodForMeal": {"dessert": false, "latenight": true, "lunch": true, "dinner": true, "breakfast": false, "brunch": true}, "BusinessParking": {"garage": false, "street": true, "validated": false, "lot": false, "valet": false}, "CoatCheck": false}, "categories": ["Tiki Bars", "Nightlife", "Mexican", "Restaurants", "Bars"], "hours": {"Monday": "11:30-2:00", "Tuesday": "11:30-2:00", "Friday": "11:30-2:00", "Wednesday": "11:30-2:00", "Thursday": "11:30-2:00", "Sunday": "10:30-2:00", "Saturday": "10:30-2:00"}}
		,{"business_id": "VBHEsoXQb2AQ76J9l8h1uQ", "name": "Alfredo's Jewelry", "neighborhood": "Southeast", "address": "5775 S Eastern, Ste 103", "city": "Las Vegas", "state": "NV", "postal_code": "89119", "latitude": 36.0850508374, "longitude": -115.119420802, "stars": 4.5, "review_count": 23, "is_open": 1, "attributes": {"DogsAllowed": true, "BusinessParking": {"garage": false, "street": false, "validated": false, "lot": false, "valet": false}, "BusinessAcceptsCreditCards": true, "RestaurantsPriceRange2": 2, "BikeParking": true, "ByAppointmentOnly": false, "WheelchairAccessible": true}, "categories": ["Shopping", "Jewelry", "Watch Repair", "Local Services"], "hours": {"Monday": "10:00-17:00", "Tuesday": "10:00-17:00", "Friday": "10:00-17:00", "Wednesday": "10:00-17:00", "Thursday": "10:00-17:00", "Saturday": "10:00-14:00"}}
		,{"business_id": "AtdXq_gu9NTE5rx4ct_dGg", "name": "DAVIDsTEA", "neighborhood": "Ryerson", "address": "10 Dundas Street E", "city": "Toronto", "state": "ON", "postal_code": "M5B 2G9", "latitude": 43.6567287, "longitude": -79.3807182, "stars": 4.0, "review_count": 6, "is_open": 1, "attributes": {"BusinessParking": {"garage": false, "street": false, "validated": false, "lot": false, "valet": false}, "WiFi": "free", "OutdoorSeating": false, "BusinessAcceptsCreditCards": true, "RestaurantsPriceRange2": 2, "BikeParking": true, "RestaurantsTakeOut": true}, "categories": ["Coffee & Tea", "Food", "Tea Rooms"], "hours": {"Monday": "10:00-21:00", "Tuesday": "10:00-21:00", "Friday": "10:00-21:00", "Wednesday": "10:00-21:00", "Thursday": "10:00-21:00", "Sunday": "11:00-18:00", "Saturday": "9:30-18:00"}}
		,{"business_id": "Dj0S-Oe4ytRJzMGUPgYUkw", "name": "Panera Bread", "neighborhood": "", "address": "38295 Chestnut Ridge Rd", "city": "Elyria", "state": "OH", "postal_code": "44035", "latitude": 41.343078, "longitude": -82.06714, "stars": 2.0, "review_count": 4, "is_open": 1, "attributes": {"GoodForMeal": {"dessert": false, "latenight": false, "lunch": false, "dinner": false, "breakfast": false, "brunch": false}, "RestaurantsReservations": false, "BusinessAcceptsCreditCards": true, "RestaurantsDelivery": false, "RestaurantsTakeOut": true, "GoodForKids": true}, "categories": ["Soup", "Salad", "Sandwiches", "Restaurants"], "hours": {"Monday": "6:30-21:00", "Tuesday": "6:30-21:00", "Friday": "6:30-22:00", "Wednesday": "6:30-21:00", "Thursday": "6:30-21:00", "Sunday": "7:00-20:00", "Saturday": "7:00-22:00"}}
		,{"business_id": "gAy4LYpsScrj8POnCW6btQ", "name": "Toast Cafe", "neighborhood": "", "address": "2429 Hwy 160 W", "city": "Fort Mill", "state": "SC", "postal_code": "29708", "latitude": 35.0472868, "longitude": -80.9905588, "stars": 3.5, "review_count": 6, "is_open": 0, "attributes": {"GoodForMeal": {"dessert": false, "latenight": false, "lunch": false, "dinner": false, "breakfast": false, "brunch": false}, "GoodForKids": true, "RestaurantsReservations": false, "BusinessAcceptsCreditCards": true, "RestaurantsTakeOut": true, "RestaurantsGoodForGroups": true}, "categories": ["Food", "American (Traditional)", "Coffee & Tea", "Restaurants"], "hours": {"Monday": "7:00-15:00", "Tuesday": "7:00-15:00", "Friday": "7:00-15:00", "Wednesday": "7:00-15:00", "Thursday": "7:00-15:00", "Sunday": "7:00-15:00", "Saturday": "7:00-15:00"}}
		,{"business_id": "nbhBRhZtdaZmMMeb2i02pg", "name": "Sunnyside Grill", "neighborhood": "", "address": "2777 Steeles Avenue W", "city": "Toronto", "state": "ON", "postal_code": "M3J 3K5", "latitude": 43.7818155, "longitude": -79.4904331, "stars": 5.0, "review_count": 3, "is_open": 1, "attributes": {"GoodForMeal": {"dessert": false, "latenight": false, "lunch": false, "dinner": false, "breakfast": false, "brunch": false}, "Alcohol": "none", "Caters": true, "HasTV": true, "RestaurantsGoodForGroups": true, "WiFi": "free", "RestaurantsReservations": true, "OutdoorSeating": true, "RestaurantsPriceRange2": 1, "BikeParking": true, "RestaurantsDelivery": true, "RestaurantsTakeOut": true, "GoodForKids": true, "WheelchairAccessible": true, "RestaurantsTableService": true}, "categories": ["Restaurants", "Breakfast & Brunch"], "hours": {"Monday": "7:00-15:00", "Tuesday": "7:00-15:00", "Friday": "7:00-15:00", "Wednesday": "7:00-15:00", "Thursday": "7:00-15:00", "Sunday": "7:00-15:00", "Saturday": "7:00-15:00"}}
		,{"business_id": "zzMu-6SmqhpvHxVRM6tx9g", "name": "Good Brakes Automotive", "neighborhood": "", "address": "12614 N Cave Creek Rd, Ste 104", "city": "Phoenix", "state": "AZ", "postal_code": "85022", "latitude": 33.6008771, "longitude": -112.0376849, "stars": 4.0, "review_count": 5, "is_open": 1, "attributes": {"BusinessAcceptsCreditCards": true}, "categories": ["Oil Change Stations", "Smog Check Stations", "Automotive", "Auto Repair"], "hours": {"Friday": "7:00-17:30", "Tuesday": "7:00-17:30", "Thursday": "7:00-17:30", "Wednesday": "7:00-17:30", "Monday": "7:00-17:30"}}
		,{"business_id": "1_3nOM7s9WqnJWTNu2-i8Q", "name": "Le Bistro Balmoral", "neighborhood": "Ville-Marie", "address": "305 Rue Sainte-Catherine O", "city": "Montreal", "state": "QC", "postal_code": "H2X 2A1", "latitude": 45.5067722126, "longitude": -73.5667249688, "stars": 3.0, "review_count": 8, "is_open": 0, "attributes": {"GoodForMeal": {"dessert": false, "latenight": false, "lunch": false, "dinner": false, "breakfast": false, "brunch": false}, "Alcohol": "full_bar", "HasTV": true, "RestaurantsGoodForGroups": true, "RestaurantsAttire": "casual", "RestaurantsReservations": true, "OutdoorSeating": true, "BusinessAcceptsCreditCards": true, "RestaurantsPriceRange2": 2, "RestaurantsTableService": true, "RestaurantsDelivery": false, "RestaurantsTakeOut": false, "GoodForKids": true}, "categories": ["Arts & Entertainment", "Festivals", "Restaurants", "French", "Gastropubs"], "hours": {"Monday": "11:30-14:00", "Tuesday": "17:00-21:30", "Friday": "17:00-21:30", "Wednesday": "17:00-21:30", "Thursday": "17:00-21:30", "Saturday": "16:30-21:30"}}
		,{"business_id": "FXHfcFVEfI1vVngW2gVOpw", "name": "Bampot House of Tea & Board Games", "neighborhood": "", "address": "201 Harbord Street", "city": "Toronto", "state": "ON", "postal_code": "M5S 1H6", "latitude": 43.6615816807, "longitude": -79.4088784561, "stars": 4.0, "review_count": 55, "is_open": 1, "attributes": {"BusinessParking": {"garage": false, "street": true, "validated": false, "lot": false, "valet": false}, "Caters": false, "WiFi": "free", "BusinessAcceptsCreditCards": true, "RestaurantsPriceRange2": 2, "BikeParking": true, "RestaurantsTakeOut": true, "WheelchairAccessible": false}, "categories": ["Coffee & Tea", "Restaurants", "Food", "Mediterranean", "Tea Rooms"], "hours": {"Monday": "17:00-23:00", "Tuesday": "11:00-23:00", "Friday": "12:00-1:30", "Wednesday": "11:00-23:00", "Thursday": "11:00-23:00", "Sunday": "12:00-23:00", "Saturday": "12:00-1:30"}}
		,{"business_id": "7gquCdaFoHZCcLYDttpHtw", "name": "Bubbly Nails", "neighborhood": "", "address": "8439 Charlotte Hwy", "city": "Fort Mill", "state": "SC", "postal_code": "29707", "latitude": 34.9570617825, "longitude": -80.8539120108, "stars": 4.0, "review_count": 17, "is_open": 1, "attributes": {"BusinessAcceptsCreditCards": true, "RestaurantsPriceRange2": 2, "ByAppointmentOnly": false, "BikeParking": true}, "categories": ["Nail Salons", "Beauty & Spas"], "hours": {"Monday": "9:30-19:30", "Tuesday": "9:30-19:30", "Friday": "9:30-19:30", "Wednesday": "9:30-19:30", "Thursday": "9:30-19:30", "Saturday": "9:30-19:30"}}
		,{"business_id": "8y56fOiKhtCnqaiYB2S2Qg", "name": "Brewster's Pub", "neighborhood": "", "address": "96 S Main St", "city": "Munroe Falls", "state": "OH", "postal_code": "44308", "latitude": 41.136622, "longitude": -81.4392592, "stars": 4.0, "review_count": 4, "is_open": 1, "attributes": {"BusinessParking": {"garage": false, "street": false, "validated": false, "lot": false, "valet": false}, "HasTV": true, "CoatCheck": false, "NoiseLevel": "average", "OutdoorSeating": true, "BusinessAcceptsCreditCards": true, "RestaurantsPriceRange2": 1, "Music": {"dj": false, "background_music": false, "no_music": false, "karaoke": false, "live": false, "video": false, "jukebox": true}, "RestaurantsReservations": false, "BikeParking": true, "Smoking": "outdoor", "Ambience": {"romantic": false, "intimate": false, "classy": false, "hipster": false, "divey": false, "touristy": false, "trendy": false, "upscale": false, "casual": false}, "BestNights": {"monday": false, "tuesday": false, "friday": true, "wednesday": false, "thursday": true, "sunday": false, "saturday": true}, "RestaurantsGoodForGroups": true, "HappyHour": true, "GoodForDancing": false, "Alcohol": "full_bar"}, "categories": ["Nightlife", "Pubs", "Bars"], "hours": {}}
		,{"business_id": "ok38fApaT1TBEU-IH85BvA", "name": "Kool Pool Care & Repair", "neighborhood": "", "address": "3245 W Florimond Rd", "city": "Phoenix", "state": "AZ", "postal_code": "85086", "latitude": 33.8039, "longitude": -112.130405, "stars": 5.0, "review_count": 5, "is_open": 1, "attributes": {"BusinessAcceptsCreditCards": true, "ByAppointmentOnly": true}, "categories": ["Home Services", "Contractors", "Pool & Hot Tub Service", "Pool Cleaners"], "hours": {"Monday": "9:00-18:00", "Tuesday": "9:00-18:00", "Friday": "9:00-18:00", "Wednesday": "9:00-18:00", "Thursday": "9:00-18:00", "Saturday": "9:00-12:00"}}
		,{"business_id": "lj0MiK5_fyv9df2twnsI7g", "name": "Pampered Hair Passionate about Hair", "neighborhood": "Anthem", "address": "2470 Paseo Verde Pkwy", "city": "Henderson", "state": "NV", "postal_code": "89074", "latitude": 36.0194946, "longitude": -115.0947223, "stars": 5.0, "review_count": 3, "is_open": 1, "attributes": {"BusinessParking": {"garage": false, "street": false, "validated": false, "lot": true, "valet": false}, "HairSpecializesIn": {"coloring": true, "africanamerican": false, "curly": true, "perms": true, "kids": true, "extensions": true, "asian": true, "straightperms": false}, "BusinessAcceptsCreditCards": true, "RestaurantsPriceRange2": 2, "BusinessAcceptsBitcoin": false, "BikeParking": false, "ByAppointmentOnly": true, "WheelchairAccessible": true}, "categories": ["Hair Salons", "Blow Dry/Out Services", "Hair Stylists", "Beauty & Spas", "Hair Extensions"], "hours": {"Tuesday": "9:00-15:00", "Friday": "9:00-17:00", "Wednesday": "9:00-17:00", "Thursday": "9:00-17:00", "Saturday": "9:00-17:00"}}
		,{"business_id": "S4a42azhoOmr0fpeNkggHg", "name": "By Design", "neighborhood": "", "address": "11812 Carolina Place Pkwy, Ste C", "city": "Pineville", "state": "NC", "postal_code": "28134", "latitude": 35.0735981, "longitude": -80.8815165, "stars": 2.5, "review_count": 3, "is_open": 0, "attributes": {}, "categories": ["Home & Garden", "Furniture Stores", "Shopping"], "hours": {}}
		,{"business_id": "A_Ij4SwFmlRbVtRnsdSzWA", "name": "Ciao Baby Catering", "neighborhood": "", "address": "15041 N Airport Dr", "city": "Scottsdale", "state": "AZ", "postal_code": "85260", "latitude": 33.6218351, "longitude": -111.9155977, "stars": 2.0, "review_count": 5, "is_open": 0, "attributes": {"BusinessAcceptsCreditCards": true}, "categories": ["Event Planning & Services", "Caterers"], "hours": {}}
		,{"business_id": "tRVx2c89coruPRwYhGTcTw", "name": "Yuzu", "neighborhood": "", "address": "13603 Madison Ave", "city": "Lakewood", "state": "OH", "postal_code": "44107", "latitude": 41.4768463, "longitude": -81.7869709, "stars": 3.5, "review_count": 78, "is_open": 1, "attributes": {"Alcohol": "full_bar", "HasTV": true, "NoiseLevel": "average", "RestaurantsAttire": "casual", "BusinessAcceptsCreditCards": true, "Music": {"dj": false, "background_music": false, "no_music": false, "karaoke": false, "live": false, "video": false, "jukebox": true}, "Ambience": {"romantic": false, "intimate": false, "classy": false, "hipster": true, "divey": false, "touristy": false, "trendy": false, "upscale": false, "casual": true}, "RestaurantsGoodForGroups": true, "Caters": true, "WiFi": "free", "RestaurantsReservations": false, "BusinessAcceptsBitcoin": false, "BikeParking": true, "RestaurantsTakeOut": true, "GoodForKids": false, "HappyHour": true, "GoodForDancing": false, "DogsAllowed": true, "RestaurantsTableService": true, "OutdoorSeating": true, "RestaurantsPriceRange2": 2, "RestaurantsDelivery": true, "BestNights": {"monday": false, "tuesday": false, "friday": true, "wednesday": true, "thursday": false, "sunday": false, "saturday": true}, "GoodForMeal": {"dessert": false, "latenight": true, "lunch": false, "dinner": true, "breakfast": false, "brunch": false}, "BusinessParking": {"garage": false, "street": true, "validated": false, "lot": true, "valet": false}, "CoatCheck": false, "Smoking": "no", "WheelchairAccessible": true}, "categories": ["Nightlife", "Izakaya", "Comfort Food", "Cocktail Bars", "Asian Fusion", "Bars", "Japanese", "Restaurants", "Gastropubs", "Tapas/Small Plates"], "hours": {"Monday": "12:00-2:00", "Tuesday": "12:00-2:00", "Friday": "12:00-2:00", "Wednesday": "12:00-2:00", "Thursday": "12:00-2:00", "Saturday": "11:00-2:00"}}
		,{"business_id": "1Jp_hmPNUZArNqzpbm7B0g", "name": "Task Electric", "neighborhood": "Spring Valley", "address": "7260 Cimarron Rd, Ste 130", "city": "Las Vegas", "state": "NV", "postal_code": "89113", "latitude": 36.056382, "longitude": -115.269332, "stars": 4.5, "review_count": 20, "is_open": 1, "attributes": {"BusinessAcceptsCreditCards": true, "ByAppointmentOnly": true}, "categories": ["Home Services", "Lighting Fixtures & Equipment", "Local Services", "Electricians", "TV Mounting"], "hours": {"Monday": "7:00-18:00", "Tuesday": "7:00-18:00", "Friday": "7:00-18:00", "Wednesday": "7:00-18:00", "Thursday": "7:00-18:00", "Saturday": "9:00-14:30"}}
		,{"business_id": "zjySmTfL9WiMDVgp8-Jp3w", "name": "TCBY", "neighborhood": "", "address": "610 Jetton St, Ste 130", "city": "Davidson", "state": "NC", "postal_code": "28036", "latitude": 35.5012273, "longitude": -80.8609494, "stars": 3.5, "review_count": 3, "is_open": 1, "attributes": {"BusinessParking": {"garage": false, "street": false, "validated": false, "lot": false, "valet": false}, "WiFi": "free", "BusinessAcceptsCreditCards": true, "RestaurantsPriceRange2": 2, "BikeParking": true, "RestaurantsTakeOut": true}, "categories": ["Desserts", "Ice Cream & Frozen Yogurt", "Food"], "hours": {}}
		,{"business_id": "5qpi5VQ_S2Itm8xvRm1k8Q", "name": "Olsen Firearms", "neighborhood": "", "address": "28212 N Tatum Blvd, Ste D4", "city": "Cave Creek", "state": "AZ", "postal_code": "85331", "latitude": 33.7416293, "longitude": -111.9809164, "stars": 5.0, "review_count": 9, "is_open": 1, "attributes": {"BusinessAcceptsCreditCards": true, "RestaurantsPriceRange2": 2, "BusinessParking": {"garage": false, "street": false, "validated": false, "lot": false, "valet": false}, "BikeParking": true, "WheelchairAccessible": true}, "categories": ["Shopping", "Guns & Ammo"], "hours": {"Monday": "10:00-18:00", "Tuesday": "10:00-18:00", "Friday": "10:00-18:00", "Wednesday": "10:00-18:00", "Thursday": "10:00-18:00", "Saturday": "10:00-15:00"}}
		,{"business_id": "BnuzcebyB1AfxH0kjNWqSg", "name": "Carrabba's Italian Grill", "neighborhood": "", "address": "245 Lancaster Ave", "city": "Frazer", "state": "PA", "postal_code": "19355", "latitude": 40.0410025289, "longitude": -75.5424965117, "stars": 3.5, "review_count": 25, "is_open": 0, "attributes": {"RestaurantsTableService": true, "GoodForMeal": {"dessert": false, "latenight": false, "lunch": false, "dinner": true, "breakfast": false, "brunch": false}, "Alcohol": "full_bar", "Caters": true, "HasTV": false, "RestaurantsGoodForGroups": true, "NoiseLevel": "average", "WiFi": "no", "RestaurantsAttire": "casual", "RestaurantsReservations": false, "OutdoorSeating": false, "BusinessAcceptsCreditCards": true, "RestaurantsPriceRange2": 2, "BikeParking": true, "RestaurantsDelivery": false, "Ambience": {"romantic": false, "intimate": false, "classy": false, "hipster": false, "divey": false, "touristy": false, "trendy": false, "upscale": false, "casual": true}, "RestaurantsTakeOut": true, "GoodForKids": true, "WheelchairAccessible": true, "BusinessParking": {"garage": false, "street": false, "validated": false, "lot": true, "valet": false}}, "categories": ["Restaurants", "Italian", "Seafood"], "hours": {"Monday": "16:00-22:00", "Tuesday": "16:00-22:00", "Friday": "11:00-23:00", "Wednesday": "16:00-22:00", "Thursday": "16:00-22:00", "Sunday": "11:00-21:00", "Saturday": "11:00-23:00"}}
		,{"business_id": "rDMptJYWtnMhpQu_rRXHng", "name": "McDonald's", "neighborhood": "", "address": "719 E Thunderbird Rd", "city": "Phoenix", "state": "AZ", "postal_code": "85022", "latitude": 33.6070702, "longitude": -112.0643825, "stars": 1.0, "review_count": 10, "is_open": 1, "attributes": {"RestaurantsTableService": false, "GoodForMeal": {"dessert": false, "latenight": false, "lunch": true, "dinner": false, "breakfast": true, "brunch": false}, "Alcohol": "none", "Caters": false, "HasTV": true, "RestaurantsGoodForGroups": true, "NoiseLevel": "loud", "WiFi": "free", "RestaurantsAttire": "casual", "RestaurantsReservations": false, "OutdoorSeating": false, "BusinessAcceptsCreditCards": true, "RestaurantsPriceRange2": 1, "BikeParking": true, "RestaurantsDelivery": false, "Ambience": {"romantic": false, "intimate": false, "classy": false, "hipster": false, "divey": false, "touristy": false, "trendy": false, "upscale": false, "casual": false}, "RestaurantsTakeOut": true, "GoodForKids": true, "DriveThru": true, "BusinessParking": {"garage": false, "street": false, "validated": false, "lot": true, "valet": false}}, "categories": ["Fast Food", "Burgers", "Restaurants"], "hours": {}}
		,{"business_id": "1WBkAuQg81kokZIPMpn9Zg", "name": "Charr An American Burger Bar", "neighborhood": "", "address": "777 E Thunderbird Rd, Ste 107", "city": "Phoenix", "state": "AZ", "postal_code": "85022", "latitude": 33.60731, "longitude": -112.063404, "stars": 3.0, "review_count": 232, "is_open": 1, "attributes": {"RestaurantsTableService": true, "GoodForMeal": {"dessert": false, "latenight": false, "lunch": false, "dinner": true, "breakfast": false, "brunch": false}, "Alcohol": "full_bar", "Caters": true, "HasTV": true, "RestaurantsGoodForGroups": true, "NoiseLevel": "average", "WiFi": "free", "RestaurantsAttire": "casual", "RestaurantsReservations": false, "OutdoorSeating": true, "BusinessAcceptsCreditCards": true, "RestaurantsPriceRange2": 2, "BikeParking": true, "RestaurantsDelivery": true, "Ambience": {"romantic": false, "intimate": false, "classy": false, "hipster": false, "divey": false, "touristy": false, "trendy": false, "upscale": false, "casual": true}, "RestaurantsTakeOut": true, "GoodForKids": true, "DriveThru": false, "BusinessParking": {"garage": false, "street": false, "validated": false, "lot": true, "valet": false}}, "categories": ["Burgers", "Restaurants"], "hours": {"Monday": "11:00-22:00", "Tuesday": "11:00-22:00", "Friday": "11:00-23:00", "Wednesday": "11:00-22:00", "Thursday": "11:00-22:00", "Sunday": "11:00-21:00", "Saturday": "11:00-23:00"}}
		,{"business_id": "Z-4KHBDbdwyC7PwA_JE5Xw", "name": "William Jon Salon & Spa", "neighborhood": "Regent", "address": "2701 University Ave, Ste H", "city": "Madison", "state": "WI", "postal_code": "53705", "latitude": 43.0731452, "longitude": -89.4344018, "stars": 4.5, "review_count": 14, "is_open": 1, "attributes": {"BusinessParking": {"garage": false, "street": false, "validated": false, "lot": true, "valet": false}, "HairSpecializesIn": {"coloring": true, "africanamerican": true, "curly": true, "perms": true, "kids": true, "extensions": true, "asian": true, "straightperms": true}, "BusinessAcceptsCreditCards": true, "RestaurantsPriceRange2": 2, "BikeParking": true, "GoodForKids": false, "ByAppointmentOnly": false, "WheelchairAccessible": true}, "categories": ["Tanning", "Day Spas", "Spray Tanning", "Beauty & Spas", "Hair Salons"], "hours": {"Monday": "8:00-17:00", "Tuesday": "8:00-21:00", "Friday": "7:00-19:00", "Wednesday": "7:00-21:00", "Thursday": "7:00-21:00", "Saturday": "8:00-16:00"}}
		,{"business_id": "DPQnTnNw2PJj7DdENM98Cw", "name": "Star Nursery", "neighborhood": "", "address": "5340 Boulder Hwy", "city": "Las Vegas", "state": "NV", "postal_code": "89122", "latitude": 36.105196, "longitude": -115.0568796, "stars": 3.5, "review_count": 25, "is_open": 1, "attributes": {"BusinessAcceptsCreditCards": true, "RestaurantsPriceRange2": 2, "BusinessParking": {"garage": false, "street": false, "validated": false, "lot": true, "valet": false}, "BikeParking": false}, "categories": ["Nurseries & Gardening", "Home & Garden", "Shopping"], "hours": {"Monday": "7:00-18:00", "Tuesday": "7:00-18:00", "Friday": "7:00-18:00", "Wednesday": "7:00-18:00", "Thursday": "7:00-18:00", "Sunday": "8:00-17:00", "Saturday": "7:00-18:00"}}
		,{"business_id": "_F3AMoo_zdl-he384ISQbw", "name": "Rock of Ages", "neighborhood": "", "address": "3700 W Flamingo Rd", "city": "Las Vegas", "state": "NV", "postal_code": "89109", "latitude": 36.1169648, "longitude": -115.185696, "stars": 4.0, "review_count": 213, "is_open": 1, "attributes": {"GoodForKids": false}, "categories": ["Arts & Entertainment", "Performing Arts"], "hours": {}}
		,{"business_id": "-ooEO2YqDQVYNHnSF2BPfw", "name": "Restaurant Lucca", "neighborhood": "Rosemont-La Petite-Patrie", "address": "12 Rue Dante", "city": "Montr\u00e9al", "state": "QC", "postal_code": "H2S 1J5", "latitude": 45.5328965, "longitude": -73.6136037, "stars": 4.5, "review_count": 11, "is_open": 1, "attributes": {"GoodForMeal": {"dessert": false, "latenight": false, "lunch": false, "dinner": false, "breakfast": false, "brunch": false}, "RestaurantsTableService": true, "Caters": false, "HasTV": false, "RestaurantsGoodForGroups": true, "WiFi": "no", "RestaurantsAttire": "casual", "RestaurantsReservations": true, "OutdoorSeating": false, "BusinessAcceptsCreditCards": true, "RestaurantsPriceRange2": 3, "BikeParking": true, "RestaurantsDelivery": false, "Ambience": {"romantic": false, "intimate": false, "classy": false, "hipster": false, "touristy": false, "trendy": false, "upscale": false, "casual": false}, "RestaurantsTakeOut": true, "GoodForKids": false}, "categories": ["Italian", "Restaurants"], "hours": {}}
		,{"business_id": "FmGZh8ZwEnSO860_2eiYHw", "name": "Enterprise Rent-A-Car", "neighborhood": "Homestead", "address": "908 E 8th Ave", "city": "Homestead", "state": "PA", "postal_code": "15120", "latitude": 40.409116, "longitude": -79.897415, "stars": 3.0, "review_count": 4, "is_open": 1, "attributes": {}, "categories": ["Hotels & Travel", "Car Rental"], "hours": {"Monday": "8:00-18:00", "Tuesday": "8:00-18:00", "Friday": "8:00-18:00", "Wednesday": "8:00-18:00", "Thursday": "8:00-18:00", "Sunday": "8:00-18:00", "Saturday": "9:00-12:00"}}
		,{"business_id": "Pd52CjgyEU3Rb8co6QfTPw", "name": "Flight Deck Bar & Grill", "neighborhood": "Southeast", "address": "6730 S Las Vegas Blvd", "city": "Las Vegas", "state": "NV", "postal_code": "89119", "latitude": 36.0669136, "longitude": -115.1708484, "stars": 4.0, "review_count": 13, "is_open": 1, "attributes": {"Alcohol": "full_bar", "HasTV": true, "NoiseLevel": "average", "RestaurantsAttire": "casual", "BusinessAcceptsCreditCards": true, "Music": {"dj": false, "background_music": true, "no_music": false, "karaoke": false, "live": false, "video": false, "jukebox": false}, "Ambience": {"romantic": false, "intimate": false, "classy": false, "hipster": false, "divey": false, "touristy": false, "trendy": false, "upscale": false, "casual": true}, "RestaurantsGoodForGroups": true, "Caters": true, "WiFi": "free", "RestaurantsReservations": false, "RestaurantsTableService": true, "RestaurantsTakeOut": true, "GoodForKids": true, "HappyHour": true, "GoodForDancing": false, "BikeParking": true, "OutdoorSeating": false, "RestaurantsPriceRange2": 2, "RestaurantsDelivery": false, "BestNights": {"monday": false, "tuesday": false, "friday": false, "wednesday": true, "thursday": false, "sunday": false, "saturday": false}, "GoodForMeal": {"dessert": false, "latenight": false, "lunch": true, "dinner": false, "breakfast": false, "brunch": false}, "BusinessParking": {"garage": false, "street": false, "validated": false, "lot": true, "valet": false}, "CoatCheck": false, "Smoking": "no", "WheelchairAccessible": true}, "categories": ["Nightlife", "Bars", "Barbeque", "Sports Bars", "American (New)", "Restaurants"], "hours": {"Monday": "8:30-22:30", "Tuesday": "8:30-22:30", "Friday": "8:30-22:30", "Wednesday": "8:30-22:30", "Thursday": "8:30-22:30", "Sunday": "8:30-22:30", "Saturday": "8:30-22:30"}}
		,{"business_id": "4srfPk1s8nlm1YusyDUbjg", "name": "Subway", "neighborhood": "Southeast", "address": "6889 S Eastern Ave, Ste 101", "city": "Las Vegas", "state": "NV", "postal_code": "89119", "latitude": 36.0646523, "longitude": -115.1189541, "stars": 2.5, "review_count": 6, "is_open": 1, "attributes": {"GoodForMeal": {"dessert": false, "latenight": false, "lunch": false, "dinner": false, "breakfast": false, "brunch": false}, "Alcohol": "none", "HasTV": false, "RestaurantsGoodForGroups": true, "RestaurantsAttire": "casual", "RestaurantsReservations": false, "OutdoorSeating": false, "BusinessAcceptsCreditCards": true, "RestaurantsPriceRange2": 1, "BikeParking": false, "RestaurantsDelivery": false, "Ambience": {"romantic": false, "intimate": false, "classy": false, "hipster": false, "divey": false, "touristy": false, "trendy": false, "upscale": false, "casual": false}, "RestaurantsTakeOut": true, "GoodForKids": true, "DriveThru": false, "BusinessParking": {"garage": false, "street": false, "validated": false, "lot": false, "valet": false}}, "categories": ["Fast Food", "Restaurants", "Sandwiches"], "hours": {}}
		,{"business_id": "n7V4cD-KqqE3OXk0irJTyA", "name": "GameWorks", "neighborhood": "Southeast", "address": "6587 Las Vegas Blvd S, Ste 171", "city": "Las Vegas", "state": "NV", "postal_code": "89119", "latitude": 36.0682585154, "longitude": -115.1788768, "stars": 3.0, "review_count": 349, "is_open": 1, "attributes": {"RestaurantsTableService": true, "GoodForMeal": {"dessert": false, "latenight": true, "lunch": false, "dinner": false, "breakfast": false, "brunch": true}, "Alcohol": "full_bar", "Caters": true, "HasTV": true, "RestaurantsGoodForGroups": true, "NoiseLevel": "very_loud", "WiFi": "free", "RestaurantsAttire": "casual", "RestaurantsReservations": false, "OutdoorSeating": false, "BusinessAcceptsCreditCards": true, "RestaurantsPriceRange2": 2, "BikeParking": true, "RestaurantsDelivery": false, "Ambience": {"romantic": false, "intimate": false, "classy": false, "hipster": false, "divey": true, "touristy": false, "trendy": false, "upscale": false, "casual": false}, "RestaurantsTakeOut": true, "GoodForKids": true, "BusinessParking": {"garage": true, "street": false, "validated": false, "lot": true, "valet": false}}, "categories": ["Arcades", "Arts & Entertainment", "Gastropubs", "Restaurants", "American (New)"], "hours": {"Monday": "11:00-0:00", "Tuesday": "11:00-0:00", "Friday": "11:00-1:00", "Wednesday": "11:00-0:00", "Thursday": "11:00-0:00", "Sunday": "11:00-0:00", "Saturday": "11:00-1:00"}}
		,{"business_id": "c_XbaJqhm-5ycSBOkVUBmg", "name": "Don Taco", "neighborhood": "Ville-Marie", "address": "1855 Rue Saint Catherine Ouest, H3H 1M2", "city": "Montreal", "state": "QC", "postal_code": "H3H 1M2", "latitude": 45.4932164, "longitude": -73.5803794, "stars": 3.5, "review_count": 33, "is_open": 1, "attributes": {"RestaurantsTableService": false, "GoodForMeal": {"dessert": true, "latenight": false, "lunch": true, "dinner": false, "breakfast": false, "brunch": false}, "Alcohol": "none", "HasTV": false, "RestaurantsGoodForGroups": false, "NoiseLevel": "quiet", "WiFi": "free", "RestaurantsAttire": "casual", "RestaurantsReservations": false, "OutdoorSeating": false, "BusinessAcceptsCreditCards": true, "RestaurantsPriceRange2": 1, "BikeParking": true, "RestaurantsDelivery": true, "Ambience": {"romantic": false, "intimate": false, "classy": false, "hipster": false, "touristy": false, "trendy": false, "upscale": false, "casual": true}, "RestaurantsTakeOut": true, "GoodForKids": true, "BusinessParking": {"garage": false, "street": true, "validated": false, "lot": false, "valet": false}}, "categories": ["Restaurants", "Mexican"], "hours": {"Monday": "11:30-22:00", "Tuesday": "11:30-22:00", "Friday": "11:30-22:00", "Wednesday": "11:30-22:00", "Thursday": "11:30-22:00", "Sunday": "11:30-21:00", "Saturday": "11:30-22:00"}}
		,{"business_id": "ykJM7EuGziATZ5u2qIT08g", "name": "My Fitness World", "neighborhood": "South End", "address": "1225 S Church St, Ste B", "city": "Charlotte", "state": "NC", "postal_code": "28203", "latitude": 35.220211, "longitude": -80.855785, "stars": 5.0, "review_count": 4, "is_open": 1, "attributes": {"GoodForKids": false}, "categories": ["Active Life", "Fitness & Instruction", "Gyms"], "hours": {"Monday": "5:00-17:00", "Tuesday": "5:00-17:00", "Friday": "5:00-17:00", "Wednesday": "5:00-17:00", "Thursday": "5:00-17:00", "Sunday": "5:00-17:00", "Saturday": "5:00-17:00"}}
		,{"business_id": "spDZkD6cp0JUUm6ghIWHzA", "name": "Kitchen M", "neighborhood": "Unionville", "address": "8515 McCowan Road", "city": "Markham", "state": "ON", "postal_code": "L3P 5E5", "latitude": 43.867918, "longitude": -79.2836865, "stars": 3.0, "review_count": 80, "is_open": 1, "attributes": {"RestaurantsTableService": true, "GoodForMeal": {"dessert": false, "latenight": false, "lunch": true, "dinner": false, "breakfast": true, "brunch": true}, "Alcohol": "none", "Caters": false, "HasTV": true, "RestaurantsGoodForGroups": true, "NoiseLevel": "average", "WiFi": "free", "RestaurantsAttire": "casual", "RestaurantsReservations": true, "OutdoorSeating": false, "BusinessAcceptsCreditCards": true, "RestaurantsPriceRange2": 2, "BikeParking": true, "RestaurantsDelivery": false, "Ambience": {"romantic": false, "intimate": false, "classy": false, "hipster": false, "touristy": false, "trendy": false, "upscale": false, "casual": true}, "RestaurantsTakeOut": true, "GoodForKids": true, "BusinessParking": {"garage": false, "street": false, "validated": false, "lot": true, "valet": false}}, "categories": ["Restaurants", "Chinese"], "hours": {"Monday": "9:00-22:00", "Tuesday": "9:00-22:00", "Friday": "9:00-22:00", "Wednesday": "9:00-22:00", "Thursday": "9:00-22:00", "Sunday": "9:00-22:00", "Saturday": "9:00-22:00"}}
		,{"business_id": "PEKloTo1IkW_gyxp15e8Dg", "name": "Amy's Lash & Beauty Spa", "neighborhood": "Summer Hill", "address": "1219 Yonge Street", "city": "Toronto", "state": "ON", "postal_code": "M4T 1W4", "latitude": 43.6832129897, "longitude": -79.3919422965, "stars": 3.5, "review_count": 7, "is_open": 1, "attributes": {"RestaurantsPriceRange2": 2, "ByAppointmentOnly": true, "WheelchairAccessible": false}, "categories": ["Eyelash Service", "Beauty & Spas"], "hours": {"Monday": "10:00-18:00", "Tuesday": "10:00-18:00", "Friday": "10:00-18:00", "Wednesday": "10:00-18:00", "Thursday": "10:00-18:00", "Saturday": "10:00-10:15"}}
		,{"business_id": "Sx0C2RsDgrG3RxBBUoBqTw", "name": "Kool Radiator Service", "neighborhood": "Westside", "address": "3228 Meade Ave", "city": "Las Vegas", "state": "NV", "postal_code": "89102", "latitude": 36.1366387, "longitude": -115.1845851, "stars": 3.5, "review_count": 9, "is_open": 1, "attributes": {"BusinessAcceptsCreditCards": true}, "categories": ["Automotive", "Auto Repair"], "hours": {"Monday": "0:00-0:00", "Tuesday": "0:00-0:00", "Friday": "0:00-0:00", "Wednesday": "0:00-0:00", "Thursday": "0:00-0:00", "Sunday": "0:00-0:00", "Saturday": "0:00-0:00"}}
		,{"business_id": "v2GJWvZqEAjUc22hZUYzYw", "name": "John Armond Actor's Studio", "neighborhood": "Westside", "address": "8125 W Sahara Ave, Ste 210", "city": "Las Vegas", "state": "NV", "postal_code": "89117", "latitude": 36.142544, "longitude": -115.2687306, "stars": 4.5, "review_count": 12, "is_open": 1, "attributes": {"GoodForKids": true}, "categories": ["Education", "Performing Arts", "Specialty Schools", "Art Schools", "Arts & Entertainment"], "hours": {"Monday": "18:00-20:30"}}
		,{"business_id": "MmR06_kNAbmOPK-0pKvGtA", "name": "Cinnabon", "neighborhood": "Westside", "address": "4300 Meadows Ln", "city": "Las Vegas", "state": "NV", "postal_code": "89107", "latitude": 36.1725319, "longitude": -115.197258, "stars": 4.0, "review_count": 3, "is_open": 1, "attributes": {}, "categories": ["Food", "Coffee & Tea", "Desserts"], "hours": {}}
		,{"business_id": "ORUUPE_Ahrcop9K7h6rvVQ", "name": "Falls Auto Body", "neighborhood": "", "address": "20 W Steels Corners Rd", "city": "Cuyahoga Falls", "state": "OH", "postal_code": "44223", "latitude": 41.1804849, "longitude": -81.5094524, "stars": 5.0, "review_count": 3, "is_open": 1, "attributes": {"BusinessAcceptsCreditCards": true}, "categories": ["Automotive", "Body Shops", "Auto Glass Services"], "hours": {}}
		,{"business_id": "r6Jw8oRCeumxu7Y1WRxT7A", "name": "D&D Cleaning", "neighborhood": "", "address": "", "city": "Urbana", "state": "IL", "postal_code": "61802", "latitude": 40.1105875, "longitude": -88.2072697, "stars": 5.0, "review_count": 4, "is_open": 0, "attributes": {"BusinessAcceptsCreditCards": true, "BusinessAcceptsBitcoin": false, "ByAppointmentOnly": true}, "categories": ["Home Cleaning", "Home Services", "Window Washing"], "hours": {"Monday": "9:00-20:00", "Tuesday": "9:00-20:00", "Friday": "9:00-20:00", "Wednesday": "9:00-20:00", "Thursday": "9:00-20:00", "Saturday": "9:00-18:00"}}
		,{"business_id": "EJFdWX908N8Yc2XG0Lky8A", "name": "River Moon Cafe", "neighborhood": "Lawrenceville", "address": "104 43rd St", "city": "Pittsburgh", "state": "PA", "postal_code": "15201", "latitude": 40.472735, "longitude": -79.9632647, "stars": 4.0, "review_count": 5, "is_open": 0, "attributes": {"BusinessAcceptsCreditCards": true, "GoodForMeal": {"dessert": false, "latenight": false, "lunch": false, "dinner": false, "breakfast": false, "brunch": false}, "RestaurantsPriceRange2": 2, "WheelchairAccessible": true, "RestaurantsDelivery": false}, "categories": ["Cafes", "Restaurants"], "hours": {"Tuesday": "17:00-21:30", "Friday": "17:00-21:30", "Wednesday": "17:00-21:30", "Thursday": "17:00-21:30", "Saturday": "17:00-21:30"}}
		,{"business_id": "LL01hTt_eVdp-ws4zMDsrw", "name": "Pil Son", "neighborhood": "Financial District", "address": "Toronto-Dominion Centre Bank Tower, 66 Wellington St W, Ste 2709", "city": "Toronto", "state": "ON", "postal_code": "M5K 1H1", "latitude": 43.646954, "longitude": -79.382159, "stars": 5.0, "review_count": 3, "is_open": 1, "attributes": {"AcceptsInsurance": true, "ByAppointmentOnly": true}, "categories": ["Health & Medical", "General Dentistry", "Dentists"], "hours": {"Tuesday": "7:45-15:00", "Thursday": "8:30-17:00", "Wednesday": "8:30-18:00", "Monday": "7:45-18:00"}}
		,{"business_id": "d6ngz4WmMaQL8Xdfur7bwQ", "name": "Crazy Kleen Carpet Cleaning", "neighborhood": "", "address": "15825 W Redfield Rd", "city": "Surprise", "state": "AZ", "postal_code": "85379", "latitude": 33.640227, "longitude": -112.3957, "stars": 4.5, "review_count": 5, "is_open": 1, "attributes": {"BusinessAcceptsCreditCards": true, "BusinessAcceptsBitcoin": false, "ByAppointmentOnly": true}, "categories": ["Office Cleaning", "Carpet Cleaning", "Professional Services", "Home Cleaning", "Home Services", "Local Services"], "hours": {"Friday": "8:00-17:00", "Tuesday": "8:00-17:00", "Thursday": "8:00-17:00", "Wednesday": "8:00-17:00", "Monday": "8:00-17:00"}}
		,{"business_id": "6aFAEeJ3nS-iWGt7Tn7S0Q", "name": "KS Audio Video", "neighborhood": "", "address": "19925 Jetton Rd, Ste 100", "city": "Cornelius", "state": "NC", "postal_code": "28031", "latitude": 35.4802886, "longitude": -80.8857059, "stars": 5.0, "review_count": 5, "is_open": 1, "attributes": {"BusinessAcceptsCreditCards": true}, "categories": ["Home Services", "Television Service Providers", "Home Automation", "Home Theatre Installation", "Professional Services"], "hours": {"Friday": "9:00-17:00", "Tuesday": "9:00-17:00", "Thursday": "9:00-17:00", "Wednesday": "9:00-17:00", "Monday": "9:00-17:00"}}
		,{"business_id": "F31RycVVooeIOp9jsXmg6g", "name": "The Bluebird Cafe", "neighborhood": "Cannonmills", "address": "5 Canonmills", "city": "Edinburgh", "state": "MLN", "postal_code": "EH3 5HA", "latitude": 55.9624442, "longitude": -3.1976623, "stars": 4.5, "review_count": 16, "is_open": 1, "attributes": {"GoodForMeal": {"dessert": false, "latenight": false, "lunch": true, "dinner": false, "breakfast": true, "brunch": true}, "BusinessParking": {"garage": false, "street": false, "lot": false, "valet": false}, "HasTV": false, "RestaurantsGoodForGroups": false, "NoiseLevel": "quiet", "WiFi": "free", "RestaurantsAttire": "casual", "RestaurantsReservations": false, "OutdoorSeating": false, "BusinessAcceptsCreditCards": false, "RestaurantsPriceRange2": 1, "BikeParking": true, "RestaurantsDelivery": false, "Ambience": {"romantic": false, "intimate": true, "classy": false, "hipster": false, "touristy": false, "trendy": false, "upscale": false, "casual": false}, "RestaurantsTakeOut": true, "GoodForKids": false, "RestaurantsTableService": true}, "categories": ["Breakfast & Brunch", "Diners", "Restaurants", "Cafes", "British"], "hours": {"Monday": "6:00-16:00", "Tuesday": "6:00-16:00", "Friday": "6:00-16:00", "Wednesday": "6:00-16:00", "Thursday": "6:00-16:00", "Sunday": "8:00-17:00", "Saturday": "8:00-17:00"}}
		,{"business_id": "0lCpaZpmjCFEmtti9O9ZdQ", "name": "LaPuma Bakery", "neighborhood": "", "address": "12656 Chillicothe Rd", "city": "Chesterland", "state": "OH", "postal_code": "44026", "latitude": 41.5242686, "longitude": -81.3379626, "stars": 3.5, "review_count": 3, "is_open": 0, "attributes": {"BusinessAcceptsCreditCards": true, "RestaurantsPriceRange2": 1, "BusinessParking": {"garage": false, "street": false, "validated": false, "lot": false, "valet": false}}, "categories": ["Bakeries", "Food"], "hours": {}}
		,{"business_id": "2pD9wZWXDNsZf_MXd8rQtg", "name": "Carle Clinic Association", "neighborhood": "", "address": "602 W University Ave", "city": "Urbana", "state": "IL", "postal_code": "61801", "latitude": 40.116627, "longitude": -88.2147631, "stars": 2.5, "review_count": 6, "is_open": 1, "attributes": {"ByAppointmentOnly": true}, "categories": ["Doctors", "Health & Medical"], "hours": {}}
		,{"business_id": "c6Shr51XcbvAeXp6hb_Exg", "name": "Christopher Huston, MD - TOCA", "neighborhood": "", "address": "2222 E Highland Ave, Ste 300", "city": "Phoenix", "state": "AZ", "postal_code": "85016", "latitude": 33.5063676, "longitude": -112.0335679, "stars": 2.0, "review_count": 18, "is_open": 1, "attributes": {"AcceptsInsurance": true, "ByAppointmentOnly": true, "BusinessAcceptsCreditCards": true}, "categories": ["Orthopedists", "Health & Medical", "Doctors"], "hours": {}}
		,{"business_id": "iPa__LOhse-hobC2Xmp-Kw", "name": "McDonald's", "neighborhood": "", "address": "1635 E Camelback Rd", "city": "Phoenix", "state": "AZ", "postal_code": "85016", "latitude": 33.5087649, "longitude": -112.04624, "stars": 3.0, "review_count": 34, "is_open": 1, "attributes": {"RestaurantsTableService": false, "GoodForMeal": {"dessert": false, "latenight": true, "lunch": true, "dinner": true, "breakfast": true, "brunch": false}, "Alcohol": "none", "Caters": false, "HasTV": false, "RestaurantsGoodForGroups": true, "NoiseLevel": "loud", "WiFi": "paid", "RestaurantsAttire": "casual", "RestaurantsReservations": false, "OutdoorSeating": false, "BusinessAcceptsCreditCards": true, "RestaurantsPriceRange2": 1, "WheelchairAccessible": true, "BikeParking": false, "RestaurantsDelivery": false, "Ambience": {"romantic": false, "intimate": false, "classy": false, "hipster": false, "divey": false, "touristy": false, "trendy": false, "upscale": false, "casual": true}, "RestaurantsTakeOut": true, "GoodForKids": true, "DriveThru": true, "BusinessParking": {"garage": false, "street": false, "validated": false, "lot": true, "valet": false}}, "categories": ["Restaurants", "Burgers", "Fast Food"], "hours": {"Monday": "5:00-23:00", "Tuesday": "5:00-23:00", "Friday": "5:00-23:00", "Wednesday": "5:00-23:00", "Thursday": "5:00-23:00", "Sunday": "5:00-23:00", "Saturday": "5:00-23:00"}}
		,{"business_id": "XPZT3zLrkLkFSkBVxSsM3w", "name": "Sports Authority", "neighborhood": "", "address": "7000 E  Mayo Blvd Building 15", "city": "Phoenix", "state": "AZ", "postal_code": "85054", "latitude": 33.6569065, "longitude": -111.9298903, "stars": 2.5, "review_count": 21, "is_open": 0, "attributes": {"BusinessAcceptsCreditCards": true, "RestaurantsPriceRange2": 2, "BusinessParking": {"garage": false, "street": false, "validated": false, "lot": true, "valet": false}, "BikeParking": true, "WheelchairAccessible": true}, "categories": ["Sporting Goods", "Shopping"], "hours": {"Monday": "9:00-21:30", "Tuesday": "9:00-21:30", "Friday": "9:00-21:30", "Wednesday": "9:00-21:30", "Thursday": "9:00-21:30", "Sunday": "10:00-20:00", "Saturday": "9:00-21:30"}}
		,{"business_id": "zWb-kwaANIPMS_AFBbVOew", "name": "Banana Republic", "neighborhood": "", "address": "32 W Towne Mall", "city": "Madison", "state": "WI", "postal_code": "53719", "latitude": 43.0570896, "longitude": -89.5092997, "stars": 2.0, "review_count": 8, "is_open": 1, "attributes": {"BusinessAcceptsCreditCards": true, "RestaurantsPriceRange2": 2, "BusinessParking": {"garage": false, "street": false, "validated": false, "lot": false, "valet": false}, "BikeParking": true}, "categories": ["Men's Clothing", "Women's Clothing", "Fashion", "Shopping"], "hours": {"Monday": "10:00-21:00", "Tuesday": "10:00-21:00", "Friday": "10:00-21:00", "Wednesday": "10:00-21:00", "Thursday": "10:00-21:00", "Sunday": "11:00-18:00", "Saturday": "10:00-21:00"}}
		,{"business_id": "o1fTwfqN0sDFNpV1CkOPPg", "name": "Crazy Mocha Coffee", "neighborhood": "Lawrenceville", "address": "4032 Butler St", "city": "Pittsburgh", "state": "PA", "postal_code": "15201", "latitude": 40.4692949, "longitude": -79.9612733, "stars": 3.5, "review_count": 16, "is_open": 1, "attributes": {"GoodForMeal": {"dessert": false, "latenight": false, "lunch": false, "dinner": false, "breakfast": false, "brunch": false}, "BusinessParking": {"garage": false, "street": true, "validated": false, "lot": false, "valet": false}, "HasTV": false, "RestaurantsGoodForGroups": true, "WiFi": "free", "RestaurantsAttire": "casual", "RestaurantsReservations": false, "OutdoorSeating": true, "BusinessAcceptsCreditCards": true, "RestaurantsPriceRange2": 1, "BikeParking": true, "RestaurantsDelivery": false, "Ambience": {"romantic": false, "intimate": false, "classy": false, "hipster": false, "divey": false, "touristy": false, "trendy": false, "upscale": false, "casual": false}, "RestaurantsTakeOut": true, "GoodForKids": true}, "categories": ["Restaurants", "Sandwiches", "Coffee & Tea", "Food"], "hours": {"Monday": "7:00-21:00", "Tuesday": "7:00-21:00", "Friday": "7:00-21:00", "Wednesday": "7:00-21:00", "Thursday": "7:00-21:00", "Sunday": "9:00-21:00", "Saturday": "8:00-21:00"}}
		,{"business_id": "-nHkhiuerqmfBG3v2v9O-g", "name": "Bruegger's Bagels", "neighborhood": "", "address": "5217 Clairton Blvd", "city": "Pittsburgh", "state": "PA", "postal_code": "15236", "latitude": 40.3441937, "longitude": -79.970963, "stars": 2.5, "review_count": 5, "is_open": 1, "attributes": {"GoodForMeal": {"dessert": false, "latenight": false, "lunch": false, "dinner": false, "breakfast": false, "brunch": false}, "Caters": true, "RestaurantsGoodForGroups": true, "RestaurantsAttire": "casual", "RestaurantsReservations": false, "BusinessAcceptsCreditCards": true, "RestaurantsPriceRange2": 1, "BikeParking": true, "RestaurantsDelivery": false, "Ambience": {"romantic": false, "intimate": false, "classy": false, "hipster": false, "divey": false, "touristy": false, "trendy": false, "upscale": false, "casual": false}, "RestaurantsTakeOut": true, "GoodForKids": true, "WheelchairAccessible": false}, "categories": ["Breakfast & Brunch", "Bagels", "Restaurants", "Bakeries", "Sandwiches", "Food"], "hours": {"Monday": "5:30-17:00", "Tuesday": "5:30-17:00", "Friday": "5:30-17:00", "Wednesday": "5:30-17:00", "Thursday": "5:30-17:00", "Sunday": "6:00-16:00", "Saturday": "6:00-16:00"}}
		,{"business_id": "NFTh6mj3X2AnHJCKIFUk5Q", "name": "Fairfield Inn & Suites", "neighborhood": "", "address": "8540 E Independence Blvd", "city": "Charlotte", "state": "NC", "postal_code": "28105", "latitude": 35.147422, "longitude": -80.726487, "stars": 4.0, "review_count": 17, "is_open": 1, "attributes": {"BusinessAcceptsCreditCards": true, "RestaurantsPriceRange2": 2, "WiFi": "free"}, "categories": ["Hotels", "Event Planning & Services", "Hotels & Travel"], "hours": {}}
		,{"business_id": "EfYExaDrwhj0k611u5lYMg", "name": "G G & D Motor Vehicle Services", "neighborhood": "", "address": "4307 W Glendale Ave", "city": "Glendale", "state": "AZ", "postal_code": "85301", "latitude": 33.5369186, "longitude": -112.1522269, "stars": 2.0, "review_count": 12, "is_open": 1, "attributes": {}, "categories": ["Shopping", "Public Services & Government", "Departments of Motor Vehicles"], "hours": {}}
		,{"business_id": "AZUCA3oiGou2wLnAYG1P6g", "name": "Emergency Chiropractic", "neighborhood": "", "address": "2030 S Rural Rd", "city": "Tempe", "state": "AZ", "postal_code": "85282", "latitude": 33.4062365, "longitude": -111.9266226, "stars": 2.5, "review_count": 3, "is_open": 1, "attributes": {"ByAppointmentOnly": false}, "categories": ["Health & Medical", "Chiropractors"], "hours": {"Monday": "8:00-18:00", "Tuesday": "8:00-18:00", "Friday": "8:00-18:00", "Wednesday": "8:00-18:00", "Thursday": "8:00-18:00", "Sunday": "8:00-18:00", "Saturday": "8:00-18:00"}}
		,{"business_id": "kKx8iCJkomVQBdWHnmmOiA", "name": "Little Caesars Pizza", "neighborhood": "", "address": "10720 E Southern Ave", "city": "Mesa", "state": "AZ", "postal_code": "85209", "latitude": 33.3948766, "longitude": -111.6001938, "stars": 2.5, "review_count": 4, "is_open": 1, "attributes": {"GoodForMeal": {"dessert": false, "latenight": false, "lunch": false, "dinner": false, "breakfast": false, "brunch": false}, "Caters": false, "HasTV": false, "RestaurantsGoodForGroups": false, "RestaurantsAttire": "casual", "RestaurantsReservations": false, "OutdoorSeating": false, "BusinessAcceptsCreditCards": true, "RestaurantsPriceRange2": 2, "BikeParking": false, "RestaurantsDelivery": false, "Ambience": {"romantic": false, "intimate": false, "classy": false, "hipster": false, "divey": false, "touristy": false, "trendy": false, "upscale": false, "casual": false}, "RestaurantsTakeOut": true, "GoodForKids": true}, "categories": ["Restaurants", "Pizza"], "hours": {}}
		,{"business_id": "B5EZlEDH6AVDk8tQGHAGqg", "name": "Villa Tap", "neighborhood": "Sherman", "address": "2302 Packers Ave", "city": "Madison", "state": "WI", "postal_code": "53704", "latitude": 43.1233893, "longitude": -89.3553901, "stars": 4.0, "review_count": 34, "is_open": 1, "attributes": {"Alcohol": "full_bar", "HasTV": true, "NoiseLevel": "average", "RestaurantsAttire": "casual", "BusinessAcceptsCreditCards": true, "Music": {"dj": false, "background_music": false, "no_music": false, "karaoke": false, "live": false, "video": false, "jukebox": true}, "Ambience": {"romantic": false, "intimate": false, "classy": false, "hipster": false, "divey": true, "touristy": false, "trendy": false, "upscale": false, "casual": false}, "RestaurantsGoodForGroups": true, "Caters": false, "RestaurantsReservations": false, "BikeParking": true, "RestaurantsTakeOut": true, "GoodForKids": false, "HappyHour": true, "GoodForDancing": false, "OutdoorSeating": false, "RestaurantsPriceRange2": 1, "RestaurantsDelivery": false, "BestNights": {"monday": true, "tuesday": true, "friday": true, "wednesday": false, "thursday": false, "sunday": false, "saturday": false}, "GoodForMeal": {"dessert": false, "latenight": false, "lunch": false, "dinner": false, "breakfast": false, "brunch": false}, "BusinessParking": {"garage": false, "street": false, "validated": false, "lot": true, "valet": false}, "CoatCheck": false, "Smoking": "no"}, "categories": ["American (Traditional)", "Nightlife", "Dive Bars", "Restaurants", "Bars"], "hours": {"Monday": "11:00-2:00", "Tuesday": "11:00-2:00", "Friday": "11:00-2:30", "Wednesday": "11:00-2:00", "Thursday": "11:00-2:00", "Sunday": "10:00-17:00", "Saturday": "10:00-2:30"}}
		,{"business_id": "bOOgAB_CEWWsxalAthnRSw", "name": "Tenors of Rock", "neighborhood": "The Strip", "address": "3475 S Las Vegas Blvd", "city": "Las Vegas", "state": "NV", "postal_code": "89109", "latitude": 36.1193098, "longitude": -115.1717702, "stars": 4.5, "review_count": 46, "is_open": 1, "attributes": {"GoodForKids": false}, "categories": ["Performing Arts", "Arts & Entertainment"], "hours": {"Monday": "8:00-22:00", "Friday": "20:00-22:00", "Wednesday": "20:00-22:00", "Thursday": "20:00-22:00", "Sunday": "20:00-22:00", "Saturday": "20:00-22:00"}}
		,{"business_id": "l5ijDMpYdyKbF0CxiCVO_Q", "name": "Starlight Tattoo", "neighborhood": "The Strip", "address": "3400 Las Vegas Blvd", "city": "Las Vegas", "state": "NV", "postal_code": "89109", "latitude": 36.1213295255, "longitude": -115.175283886, "stars": 4.0, "review_count": 24, "is_open": 1, "attributes": {"BusinessAcceptsCreditCards": true, "RestaurantsPriceRange2": 3, "BusinessParking": {"garage": true, "street": false, "validated": false, "lot": false, "valet": false}, "BikeParking": true, "ByAppointmentOnly": false}, "categories": ["Beauty & Spas", "Piercing", "Tattoo"], "hours": {"Monday": "9:00-22:00", "Tuesday": "9:00-22:00", "Friday": "9:00-0:00", "Wednesday": "9:00-22:00", "Thursday": "9:00-0:00", "Sunday": "9:00-22:00", "Saturday": "9:00-0:00"}}
		,{"business_id": "nJ3mXjItS8WcwhYbzbfDQw", "name": "Scott's Karat Patch", "neighborhood": "South Park", "address": "5110 Park Rd, Ste 2F", "city": "Charlotte", "state": "NC", "postal_code": "28209", "latitude": 35.1608893, "longitude": -80.8492598, "stars": 4.0, "review_count": 5, "is_open": 1, "attributes": {"DogsAllowed": true, "BusinessParking": {"garage": false, "street": true, "validated": false, "lot": false, "valet": false}, "BusinessAcceptsCreditCards": true, "RestaurantsPriceRange2": 2, "BusinessAcceptsBitcoin": false, "BikeParking": true, "ByAppointmentOnly": false, "WheelchairAccessible": true}, "categories": ["Watch Repair", "Jewelry Repair", "Shopping", "Local Services", "Jewelry"], "hours": {"Monday": "10:00-18:00", "Tuesday": "10:00-18:00", "Friday": "10:00-18:00", "Wednesday": "10:00-18:00", "Thursday": "10:00-18:00", "Saturday": "10:00-15:00"}}
		,{"business_id": "NoxzrJbWS4xD9ft0ygD3JA", "name": "The Brink Lounge", "neighborhood": "Williamson - Marquette", "address": "701 E Washington Ave, Ste 105", "city": "Madison", "state": "WI", "postal_code": "53703", "latitude": 43.0798171, "longitude": -89.3762962, "stars": 3.5, "review_count": 30, "is_open": 1, "attributes": {"WheelchairAccessible": true, "DogsAllowed": false, "BusinessParking": {"garage": false, "street": true, "validated": false, "lot": true, "valet": false}, "HasTV": true, "CoatCheck": false, "NoiseLevel": "average", "OutdoorSeating": true, "BusinessAcceptsCreditCards": true, "RestaurantsPriceRange2": 2, "Music": {"dj": false, "background_music": false, "no_music": false, "karaoke": false, "live": true, "video": false, "jukebox": false}, "RestaurantsReservations": false, "BikeParking": true, "Smoking": "no", "Ambience": {"romantic": false, "intimate": false, "classy": false, "hipster": false, "divey": false, "touristy": false, "trendy": false, "upscale": false, "casual": true}, "BestNights": {"monday": true, "tuesday": false, "friday": false, "wednesday": false, "thursday": false, "sunday": true, "saturday": true}, "RestaurantsGoodForGroups": true, "HappyHour": true, "GoodForDancing": true, "Alcohol": "full_bar"}, "categories": ["Event Planning & Services", "Nightlife", "Lounges", "Venues & Event Spaces", "Bars"], "hours": {"Tuesday": "16:00-14:30", "Friday": "16:00-14:30", "Wednesday": "16:00-14:30", "Thursday": "16:00-14:30", "Saturday": "16:00-14:30"}}
		,{"business_id": "VXH7zXcZzXlmAVN8GSjGRQ", "name": "Thai Express", "neighborhood": "", "address": "4700 Keele Street", "city": "Toronto", "state": "ON", "postal_code": "M3J 1P3", "latitude": 43.7748776774, "longitude": -79.4946187281, "stars": 3.0, "review_count": 5, "is_open": 1, "attributes": {"RestaurantsTableService": false, "GoodForMeal": {"dessert": false, "latenight": false, "lunch": false, "dinner": false, "breakfast": false, "brunch": false}, "Alcohol": "none", "RestaurantsGoodForGroups": true, "NoiseLevel": "average", "RestaurantsAttire": "casual", "RestaurantsReservations": false, "OutdoorSeating": false, "BusinessAcceptsCreditCards": true, "RestaurantsPriceRange2": 1, "BikeParking": true, "RestaurantsDelivery": false, "Ambience": {"romantic": false, "intimate": false, "classy": false, "hipster": false, "touristy": false, "trendy": false, "upscale": false, "casual": false}, "RestaurantsTakeOut": true, "GoodForKids": true, "BusinessParking": {"garage": false, "street": false, "validated": false, "lot": false, "valet": false}}, "categories": ["Imported Food", "Specialty Food", "Thai", "Ethnic Food", "Food", "Restaurants"], "hours": {"Monday": "10:00-23:00", "Tuesday": "10:00-23:00", "Friday": "10:00-23:00", "Wednesday": "10:00-23:00", "Thursday": "10:00-23:00", "Sunday": "11:00-22:00", "Saturday": "11:00-22:00"}}
		,{"business_id": "8XQmnE-v6RrsHiqEz6QXdg", "name": "Havel's Flowers & Greenhouses", "neighborhood": "", "address": "9294 Mentor Ave", "city": "Mentor", "state": "OH", "postal_code": "44060", "latitude": 41.6777682, "longitude": -81.3068638, "stars": 3.5, "review_count": 4, "is_open": 1, "attributes": {"BusinessAcceptsCreditCards": true, "RestaurantsPriceRange2": 2, "BusinessParking": {"garage": false, "street": false, "validated": false, "lot": false, "valet": false}, "BikeParking": false}, "categories": ["Florists", "Wholesale Stores", "Shopping", "Flowers & Gifts"], "hours": {"Monday": "9:00-18:00", "Tuesday": "9:00-18:00", "Friday": "9:00-18:00", "Wednesday": "9:00-18:00", "Thursday": "9:00-18:00", "Sunday": "10:30-14:00", "Saturday": "9:00-18:00"}}
		,{"business_id": "YhV93k9uiMdr3FlV4FHjwA", "name": "Caviness Studio", "neighborhood": "", "address": "", "city": "Phoenix", "state": "AZ", "postal_code": "85001", "latitude": 33.4499672, "longitude": -112.0702225, "stars": 5.0, "review_count": 4, "is_open": 1, "attributes": {"BusinessAcceptsCreditCards": true, "BusinessAcceptsBitcoin": false, "RestaurantsReservations": false, "RestaurantsDelivery": false}, "categories": ["Marketing", "Men's Clothing", "Restaurants", "Graphic Design", "Women's Clothing", "Screen Printing", "Advertising", "Pizza", "Shopping", "Web Design", "Fashion", "Local Services", "Screen Printing/T-Shirt Printing", "Professional Services"], "hours": {"Monday": "8:00-17:00", "Tuesday": "8:00-17:00", "Friday": "8:00-17:00", "Wednesday": "8:00-17:00", "Thursday": "8:00-17:00", "Saturday": "9:00-15:00"}}
		,{"business_id": "w5WBrukfSuEyTjYUYlV4Ug", "name": "International Exposition Center", "neighborhood": "Riverside", "address": "1 I-X Center Dr", "city": "Cleveland", "state": "OH", "postal_code": "44135", "latitude": 41.3985053, "longitude": -81.8532205, "stars": 4.0, "review_count": 16, "is_open": 1, "attributes": {"BusinessAcceptsCreditCards": true}, "categories": ["Venues & Event Spaces", "Event Planning & Services"], "hours": {}}
		,{"business_id": "aFBCmJUYrPeol_P75QX7Jw", "name": "Fraticelli's Authentic Italian Grill", "neighborhood": "", "address": "10 Vogell Road", "city": "Richmond Hill", "state": "ON", "postal_code": "L4B 3K4", "latitude": 43.8643333797, "longitude": -79.3824108582, "stars": 3.0, "review_count": 88, "is_open": 1, "attributes": {"RestaurantsTableService": true, "GoodForMeal": {"dessert": false, "latenight": false, "lunch": false, "dinner": true, "breakfast": false, "brunch": false}, "Alcohol": "full_bar", "Caters": false, "HasTV": true, "RestaurantsGoodForGroups": true, "NoiseLevel": "average", "WiFi": "free", "RestaurantsAttire": "casual", "RestaurantsReservations": true, "OutdoorSeating": true, "BusinessAcceptsCreditCards": true, "RestaurantsPriceRange2": 2, "BikeParking": false, "RestaurantsDelivery": false, "Ambience": {"romantic": true, "intimate": false, "classy": false, "hipster": false, "touristy": false, "trendy": false, "upscale": false, "casual": false}, "RestaurantsTakeOut": true, "GoodForKids": true, "WheelchairAccessible": true, "BusinessParking": {"garage": false, "street": false, "validated": false, "lot": true, "valet": false}}, "categories": ["Restaurants", "Italian"], "hours": {"Monday": "11:30-23:00", "Tuesday": "11:30-23:00", "Friday": "11:30-0:00", "Wednesday": "11:30-23:00", "Thursday": "11:30-23:00", "Sunday": "16:00-23:00", "Saturday": "16:00-0:00"}}
		,{"business_id": "F0fEKpTk7gAmuSFI0KW1eQ", "name": "Cafe Mastrioni", "neighborhood": "Spring Valley", "address": "4250 S Rainbow Blvd, Ste 1007", "city": "Las Vegas", "state": "NV", "postal_code": "89103", "latitude": 36.1110572, "longitude": -115.2416881, "stars": 1.5, "review_count": 3, "is_open": 0, "attributes": {"GoodForMeal": {"dessert": false, "latenight": false, "lunch": false, "dinner": false, "breakfast": false, "brunch": false}, "RestaurantsPriceRange2": 3}, "categories": ["Italian", "Restaurants"], "hours": {}}
		,{"business_id": "dA7KJReGl9PMi3Tg_mBHuw", "name": "Poty Group", "neighborhood": "", "address": "", "city": "Mesa", "state": "AZ", "postal_code": "85207", "latitude": 33.459458, "longitude": -111.642224, "stars": 5.0, "review_count": 3, "is_open": 1, "attributes": {}, "categories": ["Real Estate Agents", "Home Services", "Real Estate"], "hours": {}}
		,{"business_id": "GX83LORhO99mdNFz9_cZdQ", "name": "Dayton Family Medicine", "neighborhood": "", "address": "6840 E Brown Rd", "city": "Mesa", "state": "AZ", "postal_code": "85207", "latitude": 33.437983, "longitude": -111.682477, "stars": 2.5, "review_count": 3, "is_open": 1, "attributes": {"AcceptsInsurance": true, "BusinessAcceptsCreditCards": true}, "categories": ["Optometrists", "Doctors", "Internal Medicine", "Health & Medical"], "hours": {"Friday": "9:00-17:00", "Tuesday": "9:00-17:00", "Thursday": "9:00-17:00", "Wednesday": "9:00-17:00", "Monday": "9:00-17:00"}}
		,{"business_id": "YvxQOMstU2MVDr2uNHs_vw", "name": "Mitchell's Ice Cream - Solon Shop", "neighborhood": "", "address": "6130 Kruse Dr", "city": "Solon", "state": "OH", "postal_code": "44139", "latitude": 41.392049, "longitude": -81.4426351, "stars": 4.5, "review_count": 42, "is_open": 1, "attributes": {"BusinessParking": {"garage": false, "street": false, "validated": false, "lot": true, "valet": false}, "Caters": false, "WiFi": "no", "BusinessAcceptsCreditCards": true, "RestaurantsPriceRange2": 1, "BikeParking": true, "RestaurantsTakeOut": true}, "categories": ["Ice Cream & Frozen Yogurt", "Food"], "hours": {"Monday": "11:00-23:00", "Tuesday": "11:00-23:00", "Friday": "11:00-23:00", "Wednesday": "11:00-23:00", "Thursday": "11:00-23:00", "Sunday": "11:00-23:00", "Saturday": "11:00-23:00"}}
		,{"business_id": "NVaM_cKKJT3WWyP21PANzw", "name": "City of Mesa Cemetary", "neighborhood": "", "address": "1212 N Center St", "city": "Mesa", "state": "AZ", "postal_code": "85201", "latitude": 33.438755, "longitude": -111.832382, "stars": 4.5, "review_count": 3, "is_open": 1, "attributes": {}, "categories": ["Religious Organizations"], "hours": {}}
		,{"business_id": "dTWfATVrBfKj7Vdn0qWVWg", "name": "Flavor Cuisine", "neighborhood": "Scarborough", "address": "8 Glen Watford Drive", "city": "Toronto", "state": "ON", "postal_code": "M1S 2C1", "latitude": 43.7870613, "longitude": -79.2761657, "stars": 3.0, "review_count": 6, "is_open": 1, "attributes": {"BusinessAcceptsCreditCards": false, "GoodForKids": true, "RestaurantsReservations": false, "RestaurantsTakeOut": true}, "categories": ["Restaurants", "Chinese", "Food Court"], "hours": {"Monday": "11:00-21:00", "Friday": "11:00-21:00", "Wednesday": "11:00-21:00", "Thursday": "11:00-21:00", "Sunday": "11:00-21:00", "Saturday": "11:00-21:00"}}
		,{"business_id": "HAX1zec191t7QkT2sBZ76A", "name": "La Isla Cuban Restaurant", "neighborhood": "", "address": "1816 Galerea Blvd, Ste D", "city": "Charlotte", "state": "NC", "postal_code": "28270", "latitude": 35.137223, "longitude": -80.734594, "stars": 3.0, "review_count": 4, "is_open": 0, "attributes": {"RestaurantsTakeOut": true, "NoiseLevel": "quiet", "RestaurantsGoodForGroups": true, "RestaurantsTableService": true}, "categories": ["Restaurants", "Cuban"], "hours": {}}
		,{"business_id": "HcEJ2YiSLX_mT3RE0hvKWQ", "name": "Blush", "neighborhood": "Downtown", "address": "135 9th St", "city": "Pittsburgh", "state": "PA", "postal_code": "15222", "latitude": 40.444236, "longitude": -79.998325, "stars": 3.0, "review_count": 21, "is_open": 1, "attributes": {"BusinessParking": {"garage": true, "street": true, "validated": false, "lot": false, "valet": false}, "HasTV": true, "CoatCheck": false, "NoiseLevel": "very_loud", "OutdoorSeating": false, "BusinessAcceptsCreditCards": true, "RestaurantsPriceRange2": 2, "Music": {"dj": true, "background_music": false, "no_music": false, "karaoke": false, "live": false, "video": false, "jukebox": false}, "WheelchairAccessible": true, "BikeParking": false, "Smoking": "no", "Ambience": {"romantic": false, "intimate": false, "classy": false, "hipster": false, "divey": true, "touristy": false, "trendy": false, "upscale": false, "casual": false}, "BestNights": {"monday": false, "tuesday": false, "friday": false, "wednesday": false, "thursday": true, "sunday": true, "saturday": true}, "RestaurantsGoodForGroups": true, "HappyHour": true, "GoodForDancing": false, "Alcohol": "full_bar"}, "categories": ["Nightlife", "Adult Entertainment", "Strip Clubs"], "hours": {"Monday": "12:00-2:00", "Tuesday": "12:00-2:00", "Friday": "12:00-2:00", "Wednesday": "12:00-2:00", "Thursday": "12:00-2:00", "Sunday": "15:00-2:00", "Saturday": "12:00-2:00"}}
		,{"business_id": "VZ37HCZVruFm-w_Mkl1aEQ", "name": "Conservatory of Dance", "neighborhood": "", "address": "13637 N Tatum Blvd, Ste 8", "city": "Phoenix", "state": "AZ", "postal_code": "85032", "latitude": 33.6102929, "longitude": -111.9765967, "stars": 5.0, "review_count": 16, "is_open": 1, "attributes": {"BusinessAcceptsCreditCards": true, "GoodForKids": true, "ByAppointmentOnly": false}, "categories": ["Education", "Dance Schools", "Arts & Entertainment", "Fitness & Instruction", "Specialty Schools", "Active Life", "Dance Studios", "Performing Arts"], "hours": {"Monday": "11:00-21:00", "Tuesday": "11:00-21:00", "Friday": "9:00-16:00", "Wednesday": "13:00-21:00", "Thursday": "13:00-21:00", "Saturday": "9:00-12:30"}}
	]
}